time(millisecond),datetime(utc),latitude,longitude,height_above_takeoff(feet),height_above_ground_at_drone_location(feet),ground_elevation_at_drone_location(feet),altitude_above_seaLevel(feet),height_sonar(feet),speed(mph),distance(feet),mileage(feet),satellites,gpslevel,voltage(v),max_altitude(feet),max_ascent(feet),max_speed(mph),max_distance(feet),xSpeed(mph),ySpeed(mph),zSpeed(mph),compass_heading(degrees),pitch(degrees),roll(degrees),isPhoto,isVideo,rc_elevator,rc_aileron,rc_throttle,rc_rudder,rc_elevator(percent),rc_aileron(percent),rc_throttle(percent),rc_rudder(percent),gimbal_heading(degrees),gimbal_pitch(degrees),gimbal_roll(degrees),battery_percent,voltageCell1,voltageCell2,voltageCell3,voltageCell4,voltageCell5,voltageCell6,current(A),battery_temperature(f),altitude(feet),ascent(feet),flycStateRaw,flycState,message
5100,2023-10-17 21:53:48,45.437949540121,-122.729716268087,0,Available with any HD 360 subscription,Available with any HD 360 subscription,674.75809180223,0,0,0,0,20,5,0,674.75809180223,0,0,0,0,0,0,191.5,-4.6,2.6,0,0,364,364,364,1684,-100,-100,-100,100,191.7,0,0,88,4.007,3.974,0,0,0,0,0,80.42,674.75809180223,0,41,Motors_Started,"Aircraft not in flight. Vision systems and obstacle avoidance disabled (Code: 180059). Remote ID functionality normal (Code: 1B080003)"
5300,2023-10-17 21:53:48,45.4379495151917,-122.729716271579,0,,,674.75809180223,0,0,0.009139271946,0.009139271946,20,5,0,674.75809180223,0,0,0.009139271946,0,0,0,191.3,-4.7,2.7,0,0,415,364,432,1524,-92,-100,-90,76,191.7,0,0,88,4.007,3.974,0,0,0,0,0,80.42,674.75809180223,0,41,Motors_Started,
5500,2023-10-17 21:53:48,45.4379494990434,-122.729716296419,0,,,674.75809180223,0,0,0.0166500661496,0.01780839952,20,5,0,674.75809180223,0,0,0.0166500661496,0,0,0,191.3,-4.7,2.6,0,0,1024,1024,1024,1024,0,0,0,0,191.6,0,0,88,4.007,3.974,0,0,0,0,0,80.42,674.75809180223,0,41,Motors_Started,
5700,2023-10-17 21:53:48,45.4379494881668,-122.729716341693,0,,,674.75809180223,0,0,0.02672818327,0.0300593513556,20,5,0,674.75809180223,0,0,0.02672818327,0,0,0,191.3,-4.7,2.6,0,0,1024,1024,1024,1024,0,0,0,0,191.6,0,0,88,4.007,3.974,0,0,0,0,0,80.42,674.75809180223,0,41,Motors_Started,
5900,2023-10-17 21:53:48,45.4379494818124,-122.729716381174,0,,,674.75809180223,0,0,0.03592683842,0.040429135152,20,5,0,674.75809180223,0,0,0.03592683842,0,0,0,191.3,-4.7,2.6,0,0,1024,1024,1024,1024,0,0,0,0,191.6,0,0,88,4.007,3.974,0,0,0,0,0,80.42,674.75809180223,0,41,Motors_Started,"Setting new Return-To-Home altitude to 20m (66 ft). Data Recorder File Index is 134. Setting new Maximum Flight Altitude to 20m (66 ft)"
6100,2023-10-17 21:53:49,45.4379494778181,-122.729716437069,0,,,674.75809180223,0,0,0.048869096052,0.05481299388,20,5,0,674.75809180223,0,0,0.048869096052,0,0,0,191.3,-4.7,2.6,0,0,1024,1024,1024,1024,0,0,0,0,191.6,0,0,88,4.007,3.974,0,0,0,0,0,80.42,674.75809180223,0,41,Motors_Started,
6300,2023-10-17 21:53:49,45.437949452664,-122.729716484206,0,,,674.75809180223,0,0,0.063870080784,0.06997375552,20,5,0,674.75809180223,0,0,0.063870080784,0,0,0,191.3,-4.7,2.6,0,0,1024,1024,1024,1024,0,0,0,0,191.6,0,0,88,4.007,3.974,0,0,0,0,0,80.42,674.75809180223,0,41,Motors_Started,
6500,2023-10-17 21:53:49,45.4379494329658,-122.729716544822,0,,,674.75809180223,0,0,0.080917653508,0.08707513402,20,5,0,674.75809180223,0,0,0.080917653508,0,0,0,191.3,-4.7,2.6,0,0,1024,1024,1222,1024,0,0,30,0,191.6,0,0,88,4.007,3.974,0,0,0,0,0,80.42,674.75809180223,0,41,Motors_Started,
6700,2023-10-17 21:53:49,45.4379494477167,-122.729716593926,0,,,674.75809180223,0,0,0.089972771908,0.100750003224,20,5,0,674.75809180223,0,0,0.089972771908,0,0,0,191.3,-4.7,2.6,0,0,1024,1024,1229,1024,0,0,31,0,191.6,0,0,88,4.007,3.974,0,0,0,0,0,80.42,674.75809180223,0,10,Assisted_Takeoff,
6900,2023-10-17 21:53:49,45.4379494448264,-122.729716625654,0,,,674.75809180223,0,0,0.097920278724,0.108940620284,20,5,7.99,674.75809180223,0,0,0.097920278724,0,0,0,191.3,-4.6,2.6,0,0,1024,1024,1254,1024,0,0,35,0,191.6,0,0,88,4.015,3.99,0,0,0,0,1.852,80.42,674.75809180223,0,10,Assisted_Takeoff,
7100,2023-10-17 21:53:50,45.437949439635,-122.729716619221,0,,,674.75809180223,0,0,0.097082024104,0.111450462884,20,5,7.99,674.75809180223,0,0,0.097920278724,0,0,0,191.2,-4.7,1.8,0,0,1024,1024,1290,1024,0,0,40,0,191.6,0,0,88,4.015,3.99,0,0,0,0,1.852,80.42,674.75809180223,0,10,Assisted_Takeoff,
7300,2023-10-17 21:53:50,45.4379493916439,-122.729716605619,0,,,674.75809180223,0,0,0.101987536072,0.129303153744,20,5,7.99,674.75809180223,0,0,0.101987536072,0,0,0,191.3,-4,-0.5,0,0,1024,1024,1283,1024,0,0,39,0,191.6,0,0,88,4.015,3.99,0,0,0,0,1.852,80.42,674.75809180223,0,10,Assisted_Takeoff,
7500,2023-10-17 21:53:50,45.437949144149,-122.72971659059,0,,,674.75809180223,0.328084,0.447388,0.166398299288,0.21968340598,20,5,7.99,674.75809180223,0,0.447388,0.166398299288,-0.447388,0,-0.894776,191.4,0,-2,0,0,1024,1024,1292,1024,0,0,41,0,191.6,0,0,88,4.015,3.99,0,0,0,0,1.852,80.42,674.75809180223,0,38,Tripod,
7700,2023-10-17 21:53:50,45.4379488196827,-122.729716490807,0.328084,,,675.08617580223,0.328084,0.223694,0.268964575536,0.34079069332,20,5,7.99,675.08617580223,0.328084,0.447388,0.268964575536,-0.223694,0,-0.894776,191.5,2.7,0,0,0,1024,1024,1375,1024,0,0,53,0,191.6,0,0,88,4.015,3.99,0,0,0,0,1.852,80.42,675.08617580223,0.328084,38,Tripod,"Remote ID functionality normal (Code: 1B080003)"
7900,2023-10-17 21:53:50,45.4379486056923,-122.729716297098,0.656168,,,675.41425980223,0.656168,0.3131716,0.34100722876,0.43328085376,21,5,7.99,675.41425980223,0.656168,0.447388,0.34100722876,-0.223694,0.223694,-0.671082,191.6,1.8,1.1,0,0,1024,1024,1466,1024,0,0,67,0,191.6,0,0,88,4.015,3.99,0,0,0,0,1.852,80.42,675.41425980223,0.656168,38,Tripod,
8100,2023-10-17 21:53:51,45.4379485309023,-122.729716008017,0.656168,,,675.41425980223,0.984252,0,0.37418308284,0.51215880904,21,5,7.909,675.41425980223,0.656168,0.447388,0.37418308284,0,0,-0.894776,191.6,0.5,2.3,0,0,1024,1024,1476,1024,0,0,68,0,191.6,0,0,88,3.977,3.935,0,0,0,0,3.623,80.42,675.41425980223,0.656168,38,Tripod,
8300,2023-10-17 21:53:51,45.4379486075973,-122.729715768614,1.312336,,,676.07042780223,1.312336,0,0.36346457856,0.57953413928,21,5,7.909,676.07042780223,1.312336,0.447388,0.37418308284,0,0,-1.789552,191.5,0.1,2,0,0,1024,1024,1498,1024,0,0,72,0,191.6,0,0,88,3.977,3.935,0,0,0,0,3.623,80.42,676.07042780223,1.312336,38,Tripod,
8500,2023-10-17 21:53:51,45.4379487781006,-122.729715631001,1.968504,,,676.72659580223,1.968504,0,0.322332031312,0.65102364288,21,5,7.909,676.72659580223,1.968504,0.447388,0.37418308284,0,0,-2.23694,191.5,0.2,0.5,0,0,1024,1024,1492,1024,0,0,71,0,191.6,0,0,88,3.977,3.935,0,0,0,0,3.623,80.42,676.72659580223,1.968504,38,Tripod,
8700,2023-10-17 21:53:51,45.4379489698592,-122.729715511145,2.624672,,,677.38276380223,2.952756,0,0.284325140332,0.72742128312,21,5,7.909,677.38276380223,2.624672,0.447388,0.37418308284,0,0,-2.23694,191.6,-0.2,0.3,0,0,1024,1024,1491,1024,0,0,71,0,191.6,0,0,88,3.977,3.935,0,0,0,0,3.623,80.42,677.38276380223,2.624672,38,Tripod,
8900,2023-10-17 21:53:51,45.4379491204126,-122.729715361306,3.28084,,,678.03893180223,3.608924,0,0.278099418348,0.79441931676,20,5,7.909,678.03893180223,3.28084,0.447388,0.37418308284,0,0,-2.23694,191.5,-0.3,1.2,0,0,1024,1024,1428,1024,0,0,61,0,191.6,0,0,88,3.977,3.935,0,0,0,0,3.623,80.42,678.03893180223,3.28084,38,Tripod,"Home Point updated (Code: 3000001)"
9100,2023-10-17 21:53:52,45.4379492628115,-122.72971523591,3.937008,,,678.69509980223,4.265092,0,0.28295276496,0.85549215336,21,5,7.875,678.69509980223,3.937008,0.447388,0.37418308284,0,0,-2.23694,191.6,-0.7,0.2,0,0,1024,1024,1357,509,0,0,50,-78,191.6,0,0,87,3.964,3.918,0,0,0,0,5.229,80.42,678.69509980223,3.937008,38,Tripod,
9300,2023-10-17 21:53:52,45.437949342127,-122.729715159256,4.593176,,,679.35126780223,4.92126,0,0.29291667604,0.89045606524,21,5,7.875,679.35126780223,4.593176,0.447388,0.37418308284,0,0,-2.013246,191.6,0.2,1,0,0,1024,1024,1294,364,0,0,41,-100,191.4,0,0,87,3.964,3.918,0,0,0,0,5.229,80.42,679.35126780223,4.593176,38,Tripod,
9500,2023-10-17 21:53:52,45.4379494420787,-122.729715182149,4.92126,,,679.67935180223,5.577428,0,0.280300533904,0.92739176196,21,5,7.875,679.67935180223,4.92126,0.447388,0.37418308284,0,0,-1.11847,190.5,-0.3,1,0,0,1024,1024,1282,364,0,0,39,-100,189.4,0,0,87,3.964,3.918,0,0,0,0,5.229,80.42,679.67935180223,4.92126,38,Tripod,
9700,2023-10-17 21:53:52,45.4379495876398,-122.729715253781,5.249344,,,680.00743580223,5.905512,0,0.260248695992,0.98357614696,21,5,7.875,680.00743580223,5.249344,0.447388,0.37418308284,0,0,-0.894776,187.3,-0.7,1.2,0,0,1024,1024,1227,364,0,0,31,-100,185.6,0,0,87,3.964,3.918,0,0,0,0,5.229,80.42,680.00743580223,5.249344,38,Tripod,
9900,2023-10-17 21:53:52,45.4379497849603,-122.729715387337,5.577428,,,680.33551980223,6.233596,0,0.24252953532,1.06327431224,21,5,7.875,680.33551980223,5.577428,0.447388,0.37418308284,0,0,-0.671082,183,-0.3,1,0,0,1024,1024,1024,364,0,0,0,-100,181.1,0,0,87,3.964,3.918,0,0,0,0,5.229,80.42,680.33551980223,5.577428,38,Tripod,
10100,2023-10-17 21:53:53,45.437949990506,-122.729715493939,5.905512,,,680.66360380223,6.233596,0,0.257449811388,1.14308074524,21,5,7.902,680.66360380223,5.905512,0.447388,0.37418308284,0,0,-0.447388,178.2,0.2,1.2,0,0,1024,1024,1024,364,0,0,0,-100,176.3,0,0,87,3.969,3.925,0,0,0,0,4.67,80.6,680.66360380223,5.905512,38,Tripod,
10300,2023-10-17 21:53:53,45.4379501576961,-122.729715610966,5.905512,,,680.66360380223,6.233596,0,0.281194890888,1.211040065,21,5,7.902,680.66360380223,5.905512,0.447388,0.37418308284,0,0,0,173.5,-0.6,1.3,0,0,1024,1024,1024,364,0,0,0,-100,171.5,0,0,87,3.969,3.925,0,0,0,0,4.67,80.6,680.66360380223,5.905512,38,Tripod,
10500,2023-10-17 21:53:53,45.4379502790904,-122.72971574776,5.905512,,,680.66360380223,6.233596,0,0.300724419072,1.2675033214,21,5,7.902,680.66360380223,5.905512,0.447388,0.37418308284,0,0,0,168.7,0,1.2,0,0,1024,1024,1024,364,0,0,0,-100,166.7,0,0,87,3.969,3.925,0,0,0,0,4.67,80.6,680.66360380223,5.905512,38,Tripod,
10700,2023-10-17 21:53:53,45.4379503750478,-122.729715894277,5.905512,,,680.66360380223,6.233596,0,0.319300863236,1.31881237816,21,5,7.902,680.66360380223,5.905512,0.447388,0.37418308284,0,0,0,163.9,0.4,1.1,0,0,1024,1024,1024,364,0,0,0,-100,161.9,0,0,87,3.969,3.925,0,0,0,0,4.67,80.6,680.66360380223,5.905512,38,Tripod,
10900,2023-10-17 21:53:53,45.4379504195618,-122.72971604755,5.905512,,,680.66360380223,6.233596,0,0.325792989428,1.36127957112,21,5,7.902,680.66360380223,5.905512,0.447388,0.37418308284,0,0,0,159,0.6,1.1,0,0,1024,1024,1024,364,0,0,0,-100,157.1,0,0,87,3.969,3.925,0,0,0,0,4.67,80.6,680.66360380223,5.905512,38,Tripod,
11100,2023-10-17 21:53:54,45.437950443583,-122.729716181808,5.905512,,,680.66360380223,6.233596,0,0.33036746464,1.39674873236,21,5,7.89,680.66360380223,5.905512,0.447388,0.37418308284,0,0,0,154.2,0.9,1.2,0,0,1024,1024,1024,364,0,0,0,-100,152.3,0,0,87,3.964,3.919,0,0,0,0,4.513,80.6,680.66360380223,5.905512,38,Tripod,
11300,2023-10-17 21:53:54,45.4379504511774,-122.729716328729,5.905512,,,680.66360380223,6.233596,0,0.332759197,1.434465269,21,5,7.89,680.66360380223,5.905512,0.447388,0.37418308284,0,0,0,149.5,0.7,1,0,0,1024,1024,1024,364,0,0,0,-100,147.5,0,0,87,3.964,3.919,0,0,0,0,4.513,80.6,680.66360380223,5.905512,38,Tripod,
11500,2023-10-17 21:53:54,45.4379504356684,-122.729716454407,5.905512,,,680.66360380223,6.233596,0,0.33020342264,1.46713259288,21,5,7.89,680.66360380223,5.905512,0.447388,0.37418308284,0,0,0,144.7,0.8,0.7,0,0,1024,1024,1024,364,0,0,0,-100,142.7,0,0,87,3.964,3.919,0,0,0,0,4.513,80.6,680.66360380223,5.905512,38,Tripod,
11700,2023-10-17 21:53:54,45.4379504298762,-122.729716547699,5.905512,,,680.66360380223,6.233596,0,0.33242455132,1.4911089716,21,5,7.89,680.66360380223,5.905512,0.447388,0.37418308284,0,0,0,139.9,0.9,0.3,0,0,1024,1024,1024,364,0,0,0,-100,137.9,0,0,87,3.964,3.919,0,0,0,0,4.513,80.6,680.66360380223,5.905512,38,Tripod,
11900,2023-10-17 21:53:54,45.4379503946379,-122.729716623234,5.905512,,,680.66360380223,6.233596,0,0.324756900156,1.51433075712,21,5,7.89,680.66360380223,5.905512,0.447388,0.37418308284,0,0,0,135.1,0.9,0,0,0,1024,1024,1024,364,0,0,0,-100,133.1,0,0,87,3.964,3.919,0,0,0,0,4.513,80.6,680.66360380223,5.905512,38,Tripod,
12100,2023-10-17 21:53:55,45.4379503650782,-122.729716672123,5.905512,,,680.66360380223,6.233596,0,0.31826280546,1.53085306736,21,5,7.879,680.66360380223,5.905512,0.447388,0.37418308284,0,0,0,130.3,0.8,0.4,0,0,1024,1024,1024,364,0,0,0,-100,128.3,0,0,87,3.962,3.916,0,0,0,0,4.695,80.6,680.66360380223,5.905512,38,Tripod,
12300,2023-10-17 21:53:55,45.4379503181784,-122.729716688783,5.577428,,,680.33551980223,5.905512,0,0.303618119952,1.54848758236,20,5,7.879,680.66360380223,5.905512,0.447388,0.37418308284,0,0,0,125.5,0.9,0.7,0,0,1024,1024,1024,364,0,0,0,-100,123.5,0,0,87,3.962,3.916,0,0,0,0,4.695,80.6,680.33551980223,5.577428,38,Tripod,
12500,2023-10-17 21:53:55,45.4379502526801,-122.729716718459,5.577428,,,680.33551980223,6.233596,0,0.284396990728,1.57356304248,20,5,7.879,680.66360380223,5.905512,0.447388,0.37418308284,0,0,0,120.7,0.8,0.1,0,0,1024,1024,1024,364,0,0,0,-100,118.7,0,0,87,3.962,3.916,0,0,0,0,4.695,80.6,680.33551980223,5.577428,38,Tripod,
12700,2023-10-17 21:53:55,45.4379501550307,-122.729716732653,5.577428,,,680.33551980223,6.233596,0,0.253924548808,1.60937669192,20,5,7.879,680.66360380223,5.905512,0.447388,0.37418308284,0,0,0,115.8,1.1,-0.1,0,0,1024,1024,1024,364,0,0,0,-100,113.9,0,0,87,3.962,3.916,0,0,0,0,4.695,80.6,680.33551980223,5.577428,38,Tripod,
12900,2023-10-17 21:53:55,45.4379500617161,-122.729716758318,5.577428,,,680.33551980223,5.905512,0,0.227961621468,1.64404860904,20,5,7.879,680.66360380223,5.905512,0.447388,0.37418308284,0,0,0,111.1,0.8,-0.3,0,0,1024,1024,1024,1024,0,0,0,0,109.1,0,0,87,3.962,3.916,0,0,0,0,4.695,80.6,680.33551980223,5.577428,38,Tripod,
13100,2023-10-17 21:53:56,45.4379499830689,-122.729716756998,5.577428,,,680.33551980223,5.905512,0,0.20441109578,1.67274611652,20,5,7.874,680.66360380223,5.905512,0.447388,0.37418308284,0,0,0,106.4,1.1,-0.4,0,0,1024,1024,1024,1024,0,0,0,0,104.9,0,0,87,3.959,3.914,0,0,0,0,4.698,80.78,680.33551980223,5.577428,38,Tripod,
13300,2023-10-17 21:53:56,45.4379498979977,-122.729716759621,5.577428,,,680.33551980223,5.905512,0,0.18133858848,1.70379270544,20,5,7.874,680.66360380223,5.905512,0.447388,0.37418308284,0,0,0,103.2,0.8,-0.5,0,0,1024,1024,1024,1024,0,0,0,0,102.3,0,0,87,3.959,3.914,0,0,0,0,4.698,80.78,680.33551980223,5.577428,38,Tripod,
13500,2023-10-17 21:53:56,45.4379498504886,-122.729716760965,5.577428,,,680.33551980223,5.905512,0,0.169541672092,1.721128664,20,5,7.874,680.66360380223,5.905512,0.447388,0.37418308284,0,0,0,101.3,0.8,-0.2,0,0,1024,1024,1024,1024,0,0,0,0,100.8,0,0,87,3.959,3.914,0,0,0,0,4.698,80.78,680.33551980223,5.577428,38,Tripod,
13700,2023-10-17 21:53:56,45.4379497894236,-122.72971676502,5.577428,,,680.33551980223,5.905512,0,0.156390424952,1.74343181432,21,5,7.874,680.66360380223,5.905512,0.447388,0.37418308284,0,0,0,100.5,0.8,-0.4,0,0,1024,1024,1024,1024,0,0,0,0,100.5,0,0,87,3.959,3.914,0,0,0,0,4.698,80.78,680.33551980223,5.577428,38,Tripod,
13900,2023-10-17 21:53:56,45.4379497093093,-122.729716770258,5.577428,,,680.33551980223,5.905512,0,0.142611225036,1.77269362628,21,5,7.874,680.66360380223,5.905512,0.447388,0.37418308284,0,0,0,100.6,0.8,-1.4,0,0,1024,1024,1024,1024,0,0,0,0,100.5,0,0,87,3.959,3.914,0,0,0,0,4.698,80.78,680.33551980223,5.577428,38,Tripod,
14100,2023-10-17 21:53:57,45.4379496508647,-122.729716799227,5.577428,,,680.33551980223,5.905512,0,0.14185203866,1.79526908632,21,5,7.873,680.66360380223,5.905512,0.447388,0.37418308284,0,0,0,100.6,0.4,-0.6,0,0,1024,1024,1024,605,0,0,0,-63,100.5,0,0,87,3.958,3.912,0,0,0,0,4.677,80.78,680.33551980223,5.577428,38,Tripod,
14300,2023-10-17 21:53:57,45.4379495898843,-122.729716793517,5.577428,,,680.33551980223,5.905512,0,0.135734256312,1.81756567496,20,5,7.873,680.66360380223,5.905512,0.447388,0.37418308284,0,0,0,100.5,0.7,-0.9,0,0,1024,1024,1024,1024,0,0,0,0,100.5,0,0,87,3.958,3.912,0,0,0,0,4.677,80.78,680.33551980223,5.577428,38,Tripod,
14500,2023-10-17 21:53:57,45.437949533017,-122.72971676502,5.577428,,,680.33551980223,5.905512,0,0.127245410896,1.83955714548,21,5,7.873,680.66360380223,5.905512,0.447388,0.37418308284,0,0,0,100.4,0.8,-0.3,0,0,493,1024,1024,1024,-80,0,0,0,100,0,0,87,3.958,3.912,0,0,0,0,4.677,80.78,680.33551980223,5.577428,38,Tripod,
14700,2023-10-17 21:53:57,45.4379494885983,-122.729716719344,5.577428,,,680.33551980223,5.905512,0,0.117044623168,1.85954402276,21,5,7.873,680.66360380223,5.905512,0.447388,0.37418308284,0,0,0,99.6,0.6,-1,0,0,609,1024,1024,1024,-63,0,0,0,99.4,0,0,87,3.958,3.912,0,0,0,0,4.677,80.78,680.33551980223,5.577428,38,Tripod,
14900,2023-10-17 21:53:57,45.4379494611226,-122.729716730149,5.577428,,,680.33551980223,5.905512,0,0.121752300484,1.86994100472,21,5,7.873,680.66360380223,5.905512,0.447388,0.37418308284,0,0,0,99,7.9,0,0,0,621,1024,1024,1024,-61,0,0,0,99,0,0,87,3.958,3.912,0,0,0,0,4.677,80.78,680.33551980223,5.577428,38,Tripod,
15100,2023-10-17 21:53:58,45.4379494525612,-122.729717211215,5.577428,,,680.33551980223,5.905512,0.447388,0.243552501232,1.99313982756,21,5,7.873,680.66360380223,5.905512,0.447388,0.37418308284,0,-0.447388,0,98.7,8.1,-1,0,0,625,1024,1024,1024,-60,0,0,0,98.7,0,0,87,3.958,3.912,0,0,0,0,4.677,80.78,680.33551980223,5.577428,38,Tripod,
15300,2023-10-17 21:53:58,45.4379494956177,-122.729718215693,5.577428,,,680.33551980223,5.905512,0.894776,0.4988681262,2.2507710694,21,5,7.87,680.66360380223,5.905512,0.894776,0.4988681262,0,-0.894776,0,98.6,7,-0.7,0,0,633,1024,1024,1024,-59,0,0,0,98.6,0,0,87,3.954,3.907,0,0,0,0,4.645,80.78,680.33551980223,5.577428,38,Tripod,
15500,2023-10-17 21:53:58,45.4379495494813,-122.729719672601,5.577428,,,680.33551980223,5.905512,1.342164,0.87159123524,2.62427173752,21,5,7.87,680.66360380223,5.905512,1.342164,0.87159123524,0,-1.342164,0,98.4,6.5,-1.5,0,0,638,1024,1024,1024,-58,0,0,0,98.6,0,0,87,3.954,3.907,0,0,0,0,4.645,80.78,680.33551980223,5.577428,38,Tripod,
15700,2023-10-17 21:53:58,45.4379495912079,-122.729721513786,5.577428,,,680.33551980223,6.233596,1.565858,1.34307090912,3.09587280248,21,5,7.87,680.66360380223,5.905512,1.565858,1.34307090912,0,-1.565858,0,97.4,6.5,-1.1,0,0,638,1024,1024,1024,-58,0,0,0,98.6,0,0,87,3.954,3.907,0,0,0,0,4.645,80.78,680.33551980223,5.577428,38,Tripod,
15900,2023-10-17 21:53:58,45.4379495632052,-122.729723654613,5.577428,,,680.33551980223,6.233596,2.013246,1.8910269634,3.644028988,21,5,7.87,680.66360380223,5.905512,2.013246,1.8910269634,0,-2.013246,0,96.8,5.6,-1.8,0,0,649,1024,1024,1024,-57,0,0,0,98.6,0,0,87,3.954,3.907,0,0,0,0,4.645,80.78,680.33551980223,5.577428,38,Tripod,
16100,2023-10-17 21:53:59,45.4379494085676,-122.729726034854,5.577428,,,680.33551980223,5.905512,2.23694,2.50083013252,4.2560040732,21,5,7.87,680.66360380223,5.905512,2.23694,2.50083013252,0,-2.23694,0,96.3,5.4,-1.4,0,0,650,1024,1024,1024,-57,0,0,0,98.6,0,0,87,3.954,3.907,0,0,0,0,4.645,80.78,680.33551980223,5.577428,38,Tripod,
16300,2023-10-17 21:53:59,45.4379490487259,-122.729728592436,5.577428,,,680.33551980223,6.233596,2.23694,3.16022319824,4.9237862468,21,5,7.858,680.66360380223,5.905512,2.23694,3.16022319824,0,-2.23694,0,95.3,5.2,-1.4,0,0,652,1024,1024,1024,-56,0,0,0,98.6,0,0,87,3.951,3.904,0,0,0,0,4.819,80.96,680.33551980223,5.577428,38,Tripod,
16500,2023-10-17 21:53:59,45.4379482953087,-122.729731234455,5.577428,,,680.33551980223,6.233596,2.5501116,3.8583334568,5.6539043804,21,5,7.858,680.66360380223,5.905512,2.5501116,3.8583334568,-0.671082,-2.460634,0,74.1,5.5,-1.5,0,0,666,1024,1024,1024,-54,0,0,0,98.6,0,0,87,3.951,3.904,0,0,0,0,4.819,80.96,680.33551980223,5.577428,38,Tripod,
16700,2023-10-17 21:53:59,45.4379473986059,-122.729733936948,5.577428,,,680.33551980223,6.233596,2.6172198,4.5903544776,6.4192259272,21,5,7.858,680.66360380223,5.905512,2.6172198,4.5903544776,-0.894776,-2.460634,0,67.8,5.4,-1.6,0,0,666,1024,1024,1024,-54,0,0,0,98.6,0,0,87,3.951,3.904,0,0,0,0,4.819,80.96,680.33551980223,5.577428,38,Tripod,
16900,2023-10-17 21:53:59,45.4379463350192,-122.729736731188,5.577428,,,680.33551980223,6.233596,2.7066974,5.3676510904,7.2330382892,21,5,7.858,680.66360380223,5.905512,2.7066974,5.3676510904,-1.11847,-2.460634,0,66.2,5.2,-1.1,0,0,666,1024,1024,1024,-54,0,0,0,98.6,0,0,87,3.951,3.904,0,0,0,0,4.819,80.96,680.33551980223,5.577428,38,Tripod,
17100,2023-10-17 21:54:00,45.4379451658547,-122.729739592589,5.577428,,,680.33551980223,6.233596,2.7066974,6.1808729012,8.0807417284,21,5,7.858,680.66360380223,5.905512,2.7066974,6.1808729012,-1.11847,-2.460634,0,65.6,6,-0.9,0,0,677,1024,1024,1024,-53,0,0,0,98.6,0,0,87,3.951,3.904,0,0,0,0,4.819,80.96,680.33551980223,5.577428,38,Tripod,
17300,2023-10-17 21:54:00,45.4379439160575,-122.729742532771,5.577428,,,680.33551980223,6.233596,2.9974996,7.0300855268,8.96079425,21,5,7.857,680.66360380223,5.905512,2.9974996,7.0300855268,-1.342164,-2.684328,0,65.2,4.8,-1,0,0,1024,1024,1024,1024,0,0,0,0,98.6,0,0,87,3.952,3.906,0,0,0,0,4.768,80.96,680.33551980223,5.577428,38,Tripod,
17500,2023-10-17 21:54:00,45.4379425907818,-122.729745486755,5.577428,,,680.33551980223,6.56168,2.9974996,7.8982285992,9.8583992656,21,5,7.857,680.66360380223,5.905512,2.9974996,7.8982285992,-1.342164,-2.684328,0,65.2,3.4,-1.4,0,0,1024,1024,1024,1024,0,0,0,0,98.6,0,0,87,3.952,3.906,0,0,0,0,4.768,80.96,680.33551980223,5.577428,38,Tripod,
17700,2023-10-17 21:54:00,45.4379412547624,-122.729748309835,5.577428,,,680.33551980223,6.56168,2.7066974,8.7422246892,10.730151262,21,5,7.857,680.66360380223,5.905512,2.9974996,8.7422246892,-1.11847,-2.460634,0,65.2,-4.9,-1.3,0,0,1024,1024,1024,1024,0,0,0,0,98.6,0,0,87,3.952,3.906,0,0,0,0,4.768,80.96,680.33551980223,5.577428,38,Tripod,
17900,2023-10-17 21:54:00,45.4379401018318,-122.729750450504,5.905512,,,680.66360380223,6.889764,1.8119214,9.4041341592,11.4209977408,21,5,7.857,680.66360380223,5.905512,2.9974996,9.4041341592,-0.894776,-1.565858,0,65.3,-8.6,-1.8,0,0,487,1024,1024,1024,-81,0,0,0,98.6,0,0,87,3.952,3.906,0,0,0,0,4.768,80.96,680.66360380223,5.905512,38,Tripod,
18100,2023-10-17 21:54:01,45.4379392359372,-122.729751629751,5.905512,,,680.66360380223,6.889764,1.006623,9.8024609436,11.8579728204,21,5,7.857,680.66360380223,5.905512,2.9974996,9.8024609436,-0.447388,-0.894776,0,65.3,-5.5,-1.1,0,0,483,1024,1024,1024,-82,0,0,0,98.6,0,0,87,3.952,3.906,0,0,0,0,4.768,80.96,680.66360380223,5.905512,38,Tripod,
18300,2023-10-17 21:54:01,45.4379385862936,-122.729752163964,5.905512,,,680.66360380223,6.889764,0.6263432,10.0210305044,12.1316276848,21,5,7.85,680.66360380223,5.905512,2.9974996,10.0210305044,-0.447388,-0.447388,0,65.1,4.3,-1.7,0,0,745,1024,1024,1024,-42,0,0,0,98.6,0,0,87,3.95,3.901,0,0,0,0,4.803,80.96,680.66360380223,5.905512,38,Tripod,
18500,2023-10-17 21:54:01,45.4379379071481,-122.729752731514,5.905512,,,680.66360380223,6.889764,0.8052984,10.2544950788,12.4188652268,21,5,7.85,680.66360380223,5.905512,2.9974996,10.2544950788,-0.447388,-0.671082,0,65,6.3,-2,0,0,877,1024,1024,1024,-22,0,0,0,98.6,0,0,87,3.95,3.901,0,0,0,0,4.803,80.96,680.66360380223,5.905512,38,Tripod,
18700,2023-10-17 21:54:01,45.4379371457103,-122.729753577183,5.905512,,,680.66360380223,6.889764,1.11847,10.5678481072,12.7710634008,21,5,7.85,680.66360380223,5.905512,2.9974996,10.5678481072,-0.671082,-0.894776,0,65.2,2.5,-2,0,0,1024,1024,1024,1024,0,0,0,0,98.6,0,0,87,3.95,3.901,0,0,0,0,4.803,80.96,680.66360380223,5.905512,38,Tripod,
18900,2023-10-17 21:54:01,45.4379363680855,-122.729754482889,5.905512,,,680.66360380223,6.889764,1.11847,10.899934732,13.137467612,21,5,7.85,680.66360380223,5.905512,2.9974996,10.899934732,-0.671082,-0.894776,0,65.1,0.7,-3,0,0,419,1024,1024,1024,-92,0,0,0,98.6,0,0,87,3.95,3.901,0,0,0,0,4.803,80.96,680.66360380223,5.905512,38,Tripod,
19100,2023-10-17 21:54:02,45.4379356275591,-122.729755322551,5.905512,,,680.66360380223,6.889764,0.8052984,11.2129596764,13.4827432136,21,5,7.85,680.66360380223,5.905512,2.9974996,11.2129596764,-0.447388,-0.671082,0,65.2,-2.2,-2.5,0,0,848,1024,1024,1024,-27,0,0,0,98.6,0,0,87,3.95,3.901,0,0,0,0,4.803,80.96,680.66360380223,5.905512,38,Tripod,
19300,2023-10-17 21:54:02,45.4379349671406,-122.729756021982,5.905512,,,680.66360380223,6.889764,0.8052984,11.4824806824,13.7829400736,20,5,7.846,680.66360380223,5.905512,2.9974996,11.4824806824,-0.447388,-0.671082,0,65.1,7.6,-2.2,0,0,1024,969,1024,1024,0,-8,0,0,98.6,0,0,87,3.947,3.897,0,0,0,0,4.804,81.14,680.66360380223,5.905512,38,Tripod,
19500,2023-10-17 21:54:02,45.4379342400148,-122.729756965365,5.905512,,,680.66360380223,6.889764,1.11847,11.82004631,14.1416999276,21,5,7.846,680.66360380223,5.905512,2.9974996,11.82004631,-0.671082,-0.894776,0,65.1,1,-2.6,0,0,1024,364,1024,1024,0,-100,0,0,98.6,0,0,87,3.947,3.897,0,0,0,0,4.804,81.14,680.66360380223,5.905512,38,Tripod,
19700,2023-10-17 21:54:02,45.437933574482,-122.729757939222,5.905512,,,680.66360380223,6.889764,0.8052984,12.154856032,14.4897314348,21,5,7.846,680.66360380223,5.905512,2.9974996,12.154856032,-0.447388,-0.671082,0,65.2,-0.5,-7.7,0,0,1024,592,1024,1024,0,-65,0,0,98.6,0,0,87,3.947,3.897,0,0,0,0,4.804,81.14,680.66360380223,5.905512,38,Tripod,
19900,2023-10-17 21:54:02,45.4379332967366,-122.729758917992,5.905512,,,680.66360380223,6.889764,0.894776,12.423392786,14.760007034,21,5,7.846,680.66360380223,5.905512,2.9974996,12.423392786,0,-0.894776,0,65.2,0,-15.1,0,0,1024,414,1024,1024,0,-92,0,0,98.6,0,0,87,3.947,3.897,0,0,0,0,4.804,81.14,680.66360380223,5.905512,38,Tripod,
20100,2023-10-17 21:54:03,45.4379337264928,-122.729760167862,5.905512,,,680.66360380223,6.889764,1.4316416,12.6331368872,15.1163390664,21,5,7.846,680.66360380223,5.905512,2.9974996,12.6331368872,0.894776,-1.11847,0,65.2,0.6,-12.8,0,0,1024,469,1024,1024,0,-84,0,0,98.6,0,0,87,3.947,3.897,0,0,0,0,4.804,81.14,680.66360380223,5.905512,38,Tripod,
20300,2023-10-17 21:54:03,45.4379348002129,-122.729761677342,5.905512,,,680.66360380223,6.889764,2.0579848,12.8087930608,15.6666015512,21,5,7.842,680.66360380223,5.905512,2.9974996,12.8087930608,1.565858,-1.342164,0,65.1,0.6,-14.7,0,0,1024,446,1024,1024,0,-88,0,0,98.6,0,0,87,3.941,3.891,0,0,0,0,4.906,81.32,680.66360380223,5.905512,38,Tripod,
20500,2023-10-17 21:54:03,45.4379365327795,-122.729763521584,5.905512,,,680.66360380223,6.889764,2.7290668,12.9948494972,16.4556107628,20,5,7.842,680.66360380223,5.905512,2.9974996,12.9948494972,2.23694,-1.565858,0,65,1.3,-13.3,0,0,1024,461,1024,1024,0,-85,0,0,98.6,0,0,87,3.941,3.891,0,0,0,0,4.906,81.32,680.66360380223,5.905512,38,Tripod,
20700,2023-10-17 21:54:03,45.4379388236894,-122.729765634899,5.905512,,,680.66360380223,6.889764,3.4225182,13.2292655152,17.4512472776,21,5,7.842,680.66360380223,5.905512,3.4225182,13.2292655152,2.908022,-1.789552,0,65,1.2,-13.2,0,0,1024,508,1024,1024,0,-78,0,0,98.6,0,0,87,3.941,3.891,0,0,0,0,4.906,81.32,680.66360380223,5.905512,38,Tripod,
20900,2023-10-17 21:54:03,45.4379415890119,-122.729768036515,5.905512,,,680.66360380223,6.889764,4.1159696,13.5668967596,18.6327761868,21,5,7.842,680.66360380223,5.905512,4.1159696,13.5668967596,3.579104,-2.013246,0,65,0.9,-11.8,0,0,1024,529,1024,1238,0,-75,0,32,98.6,0,0,87,3.941,3.891,0,0,0,0,4.906,81.32,680.66360380223,5.905512,38,Tripod,
21100,2023-10-17 21:54:04,45.4379447249895,-122.729770651897,5.905512,,,680.66360380223,7.217848,4.6080964,14.0331041236,19.9584323972,21,5,7.842,680.66360380223,5.905512,4.6080964,14.0331041236,4.026492,-2.23694,0,65,1.5,-10.4,0,0,1024,520,1024,1024,0,-76,0,0,98.6,0,0,87,3.941,3.891,0,0,0,0,4.906,81.32,680.66360380223,5.905512,38,Tripod,
21300,2023-10-17 21:54:04,45.4379481117711,-122.729773470399,5.905512,,,680.66360380223,7.217848,4.809421,14.6535109676,21.3893379548,21,5,7.845,680.66360380223,5.905512,4.809421,14.6535109676,4.250186,-2.23694,0,65.2,0.2,-9.7,0,0,1024,559,1024,1024,0,-70,0,0,98.8,0,0,87,3.947,3.898,0,0,0,0,4.874,81.32,680.66360380223,5.905512,38,Tripod,
21500,2023-10-17 21:54:04,45.4379517548242,-122.72977640342,5.905512,,,680.66360380223,6.889764,5.1002232,15.4163062676,22.9159456152,21,5,7.845,680.66360380223,5.905512,5.1002232,15.4163062676,4.47388,-2.460634,0,65.4,0.2,-9.5,0,0,1024,615,1024,1024,0,-62,0,0,99.1,0,0,87,3.947,3.898,0,0,0,0,4.874,81.32,680.66360380223,5.905512,38,Tripod,
21700,2023-10-17 21:54:04,45.4379556195591,-122.72977941055,5.905512,,,680.66360380223,6.889764,5.3015478,16.31643753,24.522474538,21,5,7.845,680.66360380223,5.905512,5.3015478,16.31643753,4.697574,-2.460634,0,65.8,0,-7.4,0,0,1024,608,1024,1024,0,-63,0,0,99.2,0,0,87,3.947,3.898,0,0,0,0,4.874,81.32,680.66360380223,5.905512,38,Tripod,
21900,2023-10-17 21:54:04,45.4379596245052,-122.729782381321,5.905512,,,680.66360380223,6.889764,5.5028724,17.3208010792,26.1697514936,21,5,7.845,680.66360380223,5.905512,5.5028724,17.3208010792,4.921268,-2.460634,0,65.7,1.2,-5.4,0,0,1024,624,1024,1024,0,-61,0,0,99.4,0,0,87,3.947,3.898,0,0,0,0,4.874,81.32,680.66360380223,5.905512,38,Tripod,
22100,2023-10-17 21:54:05,45.4379636362031,-122.72978532176,5.905512,,,680.66360380223,6.56168,5.4133948,18.4111882532,27.8156504964,21,5,7.845,680.66360380223,5.905512,5.5028724,18.4111882532,4.921268,-2.23694,0,65.9,0.4,-5.7,0,0,1024,568,1024,1024,0,-69,0,0,99.4,0,0,87,3.947,3.898,0,0,0,0,4.874,81.32,680.66360380223,5.905512,38,Tripod,
22300,2023-10-17 21:54:05,45.4379676557526,-122.729788179922,5.905512,,,680.66360380223,6.56168,5.4133948,19.5604993136,29.4545941184,21,5,7.842,680.66360380223,5.905512,5.5028724,19.5604993136,4.921268,-2.23694,0,65.9,1.8,-5.4,0,0,1024,608,1024,1024,0,-63,0,0,99.4,0,0,87,3.946,3.898,0,0,0,0,4.664,81.5,680.66360380223,5.905512,38,Tripod,
22500,2023-10-17 21:54:05,45.4379717014219,-122.729790976308,5.905512,,,680.66360380223,6.56168,5.4133948,20.764764444,31.0950797352,21,5,7.842,680.66360380223,5.905512,5.5028724,20.764764444,4.921268,-2.23694,0,65.8,2,-5.9,0,0,1024,624,1024,1024,0,-61,0,0,99.4,0,0,87,3.946,3.898,0,0,0,0,4.664,81.5,680.66360380223,5.905512,38,Tripod,
22700,2023-10-17 21:54:05,45.4379757936617,-122.729793749856,5.905512,,,680.66360380223,6.56168,5.4133948,22.0275925684,32.7483934364,21,5,7.842,680.66360380223,5.905512,5.5028724,22.0275925684,4.921268,-2.23694,0,65.9,2.4,-5.1,0,0,1024,630,1024,1024,0,-60,0,0,99.4,0,0,87,3.946,3.898,0,0,0,0,4.664,81.5,680.66360380223,5.905512,38,Tripod,
22900,2023-10-17 21:54:05,45.4379798718177,-122.729796512099,5.905512,,,680.66360380223,6.56168,5.4133948,23.3342527152,34.395670392,21,5,7.842,680.66360380223,5.905512,5.5028724,23.3342527152,4.921268,-2.23694,0,65.8,1.7,-4.2,0,0,1024,1024,1024,1024,0,0,0,0,99.4,0,0,87,3.946,3.898,0,0,0,0,4.664,81.5,680.66360380223,5.905512,38,Tripod,
23100,2023-10-17 21:54:06,45.4379839178805,-122.729799229682,5.905512,,,680.66360380223,6.56168,5.3239172,24.6659128628,36.027560208,21,5,7.842,680.66360380223,5.905512,5.5028724,24.6659128628,4.921268,-2.013246,0,65.9,2.2,-2.3,0,0,1024,1024,1024,1024,0,0,0,0,99.4,0,0,87,3.946,3.898,0,0,0,0,4.664,81.5,680.66360380223,5.905512,38,Tripod,
23300,2023-10-17 21:54:06,45.4379878331759,-122.729801880959,5.905512,,,680.66360380223,6.56168,5.1002232,25.991798732,37.609253172,21,5,7.842,680.66360380223,5.905512,5.5028724,25.991798732,4.697574,-2.013246,0,66,2,3.4,0,0,1173,1024,1024,1024,23,0,0,0,99.4,0,0,87,3.946,3.898,0,0,0,0,4.664,81.5,680.66360380223,5.905512,38,Tripod,
23500,2023-10-17 21:54:06,45.4379912315718,-122.729804192888,5.905512,,,680.66360380223,6.233596,3.914645,27.1671268536,38.983268964,21,5,7.838,680.66360380223,5.905512,5.5028724,27.1671268536,3.579104,-1.565858,0,66,0.4,15.5,0,0,1370,1024,1024,1024,52,0,0,0,99.4,0,0,87,3.942,3.892,0,0,0,0,4.744,81.5,680.66360380223,5.905512,38,Tripod,
23700,2023-10-17 21:54:06,45.4379937325539,-122.729805783856,5.905512,,,680.66360380223,6.233596,2.8185444,28.0204733376,39.982612828,21,5,7.838,680.66360380223,5.905512,5.5028724,28.0204733376,2.684328,-0.894776,0,66,1.2,6.8,0,0,1451,1024,1024,1024,65,0,0,0,99.4,0,0,87,3.942,3.892,0,0,0,0,4.744,81.5,680.66360380223,5.905512,38,Tripod,
23900,2023-10-17 21:54:06,45.4379957252054,-122.729806828378,5.905512,,,680.66360380223,5.905512,2.2816788,28.6608933056,40.757219152,20,5,7.838,680.66360380223,5.905512,5.5028724,28.6608933056,2.23694,-0.447388,0,65.9,-1.8,3.4,0,0,1427,1024,1024,1024,61,0,0,0,99.4,0,0,87,3.942,3.892,0,0,0,0,4.744,81.5,680.66360380223,5.905512,38,Tripod,
24100,2023-10-17 21:54:07,45.4379974593204,-122.729807289741,5.905512,,,680.66360380223,6.233596,2.013246,29.1317922708,41.400591876,20,5,7.838,680.66360380223,5.905512,5.5028724,29.1317922708,2.013246,0,0,65.9,-2.9,2.2,0,0,1024,1024,1024,1024,0,0,0,0,99.4,0,0,87,3.942,3.892,0,0,0,0,4.744,81.5,680.66360380223,5.905512,38,Tripod,
24300,2023-10-17 21:54:07,45.4379990884754,-122.72980727354,5.905512,,,680.66360380223,6.233596,1.789552,29.4890757468,41.995080084,21,5,7.838,680.66360380223,5.905512,5.5028724,29.4890757468,1.789552,0,0,66,-0.6,1.4,0,0,1024,1024,1024,1024,0,0,0,0,99.4,0,0,87,3.942,3.892,0,0,0,0,4.744,81.5,680.66360380223,5.905512,38,Tripod,
24500,2023-10-17 21:54:07,45.4380006190826,-122.729806986984,5.905512,,,680.66360380223,6.233596,1.5882274,29.7774287744,42.558400312,21,5,7.835,680.66360380223,5.905512,5.5028724,29.7774287744,1.565858,0.223694,0,66.1,3.7,4.9,0,0,1024,1024,1254,1024,0,0,35,0,99.4,0,0,87,3.941,3.892,0,0,0,0,4.816,81.68,680.66360380223,5.905512,38,Tripod,
24700,2023-10-17 21:54:07,45.4380018223322,-122.72980666064,5.905512,,,680.66360380223,6.233596,1.1408394,29.9896006972,43.00525072,21,5,7.835,680.66360380223,5.905512,5.5028724,29.9896006972,1.11847,0.223694,0,66.1,4.2,4.9,0,0,1024,1024,1345,1024,0,0,49,0,99.4,0,0,87,3.941,3.892,0,0,0,0,4.816,81.68,680.66360380223,5.905512,38,Tripod,
24900,2023-10-17 21:54:07,45.4380025945834,-122.729806349251,5.905512,,,680.66360380223,6.233596,0.4921268,30.1084983388,43.297901648,21,5,7.835,680.66360380223,5.905512,5.5028724,30.1084983388,0.447388,0.223694,-0.894776,66,3.3,3,0,0,1024,1024,1333,1024,0,0,47,0,99.4,0,0,87,3.941,3.892,0,0,0,0,4.816,81.68,680.66360380223,5.905512,38,Tripod,
25100,2023-10-17 21:54:08,45.4380030134726,-122.729806124241,6.233596,,,680.99168780223,6.56168,0.223694,30.1630258996,43.46128748,21,5,7.835,680.99168780223,6.233596,5.5028724,30.1630258996,0.223694,0,-1.11847,66,3.5,1.6,0,0,1024,1024,1368,1024,0,0,52,0,99.4,0,0,87,3.941,3.892,0,0,0,0,4.816,81.68,680.99168780223,6.233596,38,Tripod,
25300,2023-10-17 21:54:08,45.4380032277146,-122.729806045213,6.889764,,,681.64785580223,6.889764,0,30.1982293128,43.541996144,21,5,7.835,681.64785580223,6.889764,5.5028724,30.1982293128,0,0,-1.11847,65.9,1.6,0.9,0,0,1024,1024,1365,1024,0,0,52,0,99.4,0,0,87,3.941,3.892,0,0,0,0,4.816,81.68,681.64785580223,6.889764,38,Tripod,
25500,2023-10-17 21:54:08,45.438003324245,-122.729806043943,7.217848,,,681.97593980223,7.545932,0,30.2208343004,43.577429216,21,5,7.798,681.97593980223,7.217848,5.5028724,30.2208343004,0,0,-1.342164,65.9,1.8,0.5,0,0,1024,1024,1363,1024,0,0,51,0,99.4,0,0,87,3.942,3.884,0,0,0,0,5.139,81.68,681.97593980223,7.217848,38,Tripod,
25700,2023-10-17 21:54:08,45.4380033949165,-122.729806044407,7.545932,,,682.30402380223,7.874016,0,30.237697818,43.603019768,21,5,7.798,682.30402380223,7.545932,5.5028724,30.237697818,0,0,-1.342164,65.9,1.6,0.2,0,0,1024,1024,1363,1024,0,0,51,0,99.4,0,0,87,3.942,3.884,0,0,0,0,5.139,81.68,682.30402380223,7.545932,38,Tripod,
25900,2023-10-17 21:54:08,45.4380034297233,-122.729806019757,7.874016,,,682.63210780223,8.530184,0,30.2411427,43.617455464,21,5,7.798,682.63210780223,7.874016,5.5028724,30.2411427,0,0,-1.342164,65.9,1.3,0,0,0,1024,1024,1121,1024,0,0,15,0,99.4,0,0,87,3.942,3.884,0,0,0,0,5.139,81.68,682.63210780223,7.874016,38,Tripod,
26100,2023-10-17 21:54:09,45.4380034158194,-122.729805994082,8.530184,,,683.28827580223,8.858268,0,30.2328421748,43.625657564,21,5,7.798,683.28827580223,8.530184,5.5028724,30.2411427,0,0,-1.11847,66,1.4,0,0,0,1024,1024,1024,1024,0,0,0,0,99.4,0,0,87,3.942,3.884,0,0,0,0,5.139,81.68,683.28827580223,8.530184,38,Tripod,
26300,2023-10-17 21:54:09,45.4380034084477,-122.729806019037,8.530184,,,683.28827580223,8.858268,0,30.2359589728,43.632547328,20,5,7.798,683.28827580223,8.530184,5.5028724,30.2411427,0,0,-0.223694,65.9,1,-0.3,0,0,1024,1024,1024,1024,0,0,0,0,99.4,0,0,87,3.942,3.884,0,0,0,0,5.139,81.68,683.28827580223,8.530184,38,Tripod,
26500,2023-10-17 21:54:09,45.4380035051794,-122.72980609986,8.858268,,,683.61635980223,9.186352,0,30.2746400764,43.673557828,20,5,7.838,683.61635980223,8.858268,5.5028724,30.2746400764,0,0,0,65.9,0,-0.3,0,0,1024,1024,1024,1024,0,0,0,0,99.4,0,0,86,3.939,3.891,0,0,0,0,4.882,81.86,683.61635980223,8.858268,38,Tripod,
26700,2023-10-17 21:54:09,45.4380036641272,-122.729806126719,8.530184,,,683.28827580223,8.858268,0,30.317586272,43.73195678,20,5,7.838,683.61635980223,8.858268,5.5028724,30.317586272,0,0,0,66,0.7,0,0,0,512,1024,1024,1024,-78,0,0,0,99.4,0,0,86,3.939,3.891,0,0,0,0,4.882,81.86,683.28827580223,8.530184,38,Tripod,
26900,2023-10-17 21:54:09,45.4380038219699,-122.729806131127,8.530184,,,683.28827580223,8.858268,0,30.3559721,43.78937148,20,5,7.838,683.61635980223,8.858268,5.5028724,30.3559721,0,0,0,66,4.7,0.7,0,0,1024,1024,1024,1024,0,0,0,0,99.4,0,0,86,3.939,3.891,0,0,0,0,4.882,81.86,683.28827580223,8.530184,38,Tripod,
27100,2023-10-17 21:54:10,45.4380038770884,-122.72980632321,8.530184,,,683.28827580223,8.858268,0,30.4063658024,43.842521088,19,5,7.838,683.61635980223,8.858268,5.5028724,30.4063658024,0,0,0,65.9,4.8,0.3,0,0,1024,1024,1024,1024,0,0,0,0,99.4,0,0,86,3.939,3.891,0,0,0,0,4.882,81.86,683.28827580223,8.530184,38,Tripod,
27300,2023-10-17 21:54:10,45.4380038255979,-122.729806726568,8.858268,,,683.61635980223,8.858268,0.223694,30.4725403452,43.947507968,19,5,7.838,683.61635980223,8.858268,5.5028724,30.4725403452,0,-0.223694,0,66,0.7,0,0,0,438,1024,1024,1024,-89,0,0,0,99.4,0,0,86,3.939,3.891,0,0,0,0,4.882,81.86,683.61635980223,8.858268,38,Tripod,
27500,2023-10-17 21:54:10,45.438003811724,-122.729807053645,8.858268,,,683.61635980223,8.858268,0,30.5329406096,44.031497472,19,5,7.827,683.61635980223,8.858268,5.5028724,30.5329406096,0,0,0,66,0.4,0.2,0,0,1024,1024,1024,1024,0,0,0,0,99.4,0,0,86,3.939,3.888,0,0,0,0,4.562,81.86,683.61635980223,8.858268,38,Tripod,
27700,2023-10-17 21:54:10,45.4380037954386,-122.729807350383,8.858268,,,683.61635980223,8.858268,0.223694,30.586943236,44.10761296,19,5,7.827,683.61635980223,8.858268,5.5028724,30.586943236,0,-0.223694,0,66,5.3,0.1,0,0,1024,1024,1024,1024,0,0,0,0,99.4,0,0,86,3.939,3.888,0,0,0,0,4.562,81.86,683.61635980223,8.858268,38,Tripod,
27900,2023-10-17 21:54:10,45.4380037191344,-122.729807794213,8.530184,,,683.28827580223,8.858268,0.223694,30.6557096424,44.224738948,20,5,7.827,683.61635980223,8.858268,5.5028724,30.6557096424,0,-0.223694,0,65.9,1,0.6,0,0,1024,1024,1024,1024,0,0,0,0,99.4,0,0,86,3.939,3.888,0,0,0,0,4.562,81.86,683.28827580223,8.530184,38,Tripod,
28100,2023-10-17 21:54:11,45.438003658079,-122.72980818275,8.530184,,,683.28827580223,8.858268,0.223694,30.7174878596,44.326444988,19,5,7.827,683.61635980223,8.858268,5.5028724,30.7174878596,0,-0.223694,0,65.9,0.3,0.2,0,0,1024,1024,1024,1024,0,0,0,0,99.4,0,0,86,3.939,3.888,0,0,0,0,4.562,81.86,683.28827580223,8.530184,38,Tripod,
28300,2023-10-17 21:54:11,45.438003608062,-122.729808469196,8.530184,,,683.28827580223,8.858268,0,30.76197605,44.402232392,19,5,7.827,683.61635980223,8.858268,5.5028724,30.76197605,0,0,0,65.9,0.1,0.6,0,0,1024,1024,1024,1024,0,0,0,0,99.4,0,0,86,3.939,3.888,0,0,0,0,4.562,81.86,683.28827580223,8.530184,38,Tripod,
28500,2023-10-17 21:54:11,45.4380035598439,-122.729808598757,8.530184,,,683.28827580223,9.186352,0,30.7761820872,44.439633968,20,5,7.826,683.61635980223,8.858268,5.5028724,30.7761820872,0,0,0,65.8,0,-0.6,0,0,1024,1024,1024,1024,0,0,0,0,99.4,0,0,86,3.938,3.886,0,0,0,0,4.703,82.04,683.28827580223,8.530184,38,Tripod,
28700,2023-10-17 21:54:11,45.4380035593385,-122.729808628974,8.530184,,,683.28827580223,8.858268,0,30.781989174,44.447507984,20,5,7.826,683.61635980223,8.858268,5.5028724,30.781989174,0,0,0,65.8,1.1,-0.5,0,0,1024,1024,1024,1024,0,0,0,0,99.4,0,0,86,3.938,3.886,0,0,0,0,4.703,82.04,683.28827580223,8.530184,38,Tripod,
28900,2023-10-17 21:54:11,45.4380035515256,-122.729808620452,8.530184,,,683.28827580223,9.186352,0,30.7785114836,44.451116908,20,5,7.826,683.61635980223,8.858268,5.5028724,30.781989174,0,0,0,65.9,1.1,-0.3,0,0,1024,1024,1024,1024,0,0,0,0,99.4,0,0,86,3.938,3.886,0,0,0,0,4.703,82.04,683.28827580223,8.530184,38,Tripod,
29100,2023-10-17 21:54:12,45.4380035353001,-122.729808617265,8.530184,,,683.28827580223,8.858268,0,30.7740823496,44.45702242,20,5,7.826,683.61635980223,8.858268,5.5028724,30.781989174,0,0,0,65.9,1.3,-0.7,0,0,1024,1024,1024,1024,0,0,0,0,99.4,0,0,86,3.938,3.886,0,0,0,0,4.703,82.04,683.28827580223,8.530184,38,Tripod,
29300,2023-10-17 21:54:12,45.4380035465097,-122.729808594361,8.530184,,,683.28827580223,8.858268,0,30.7721794624,44.464240268,20,5,7.826,683.61635980223,8.858268,5.5028724,30.781989174,0,0,0,65.9,1.2,-0.5,0,0,1024,1024,1024,1024,0,0,0,0,99.4,0,0,86,3.938,3.886,0,0,0,0,4.703,82.04,683.28827580223,8.530184,38,Tripod,
29500,2023-10-17 21:54:12,45.4380035460771,-122.72980855058,8.530184,,,683.28827580223,8.858268,0,30.7634852364,44.475395124,20,5,7.824,683.61635980223,8.858268,5.5028724,30.781989174,0,0,0,65.9,1.7,-1.2,0,0,1024,1024,1024,1024,0,0,0,0,99.4,0,0,86,3.938,3.886,0,0,0,0,4.723,81.86,683.28827580223,8.530184,38,Tripod,
29700,2023-10-17 21:54:12,45.4380035532475,-122.729808503918,8.530184,,,683.28827580223,8.858268,0,30.7559721128,44.487534232,20,5,7.824,683.61635980223,8.858268,5.5028724,30.781989174,0,0,0,65.9,1.4,-0.6,0,0,1024,1024,1024,1024,0,0,0,0,99.4,0,0,86,3.938,3.886,0,0,0,0,4.723,81.86,683.28827580223,8.530184,38,Tripod,
29900,2023-10-17 21:54:12,45.4380035606663,-122.729808490671,8.530184,,,683.28827580223,9.186352,0,30.7551190944,44.491799324,20,5,7.824,683.61635980223,8.858268,5.5028724,30.781989174,0,0,0,65.9,1.6,-0.9,0,0,1024,1024,1024,1024,0,0,0,0,99.4,0,0,86,3.938,3.886,0,0,0,0,4.723,81.86,683.28827580223,8.530184,38,Tripod,
30100,2023-10-17 21:54:13,45.4380036030033,-122.729808474946,8.530184,,,683.28827580223,9.186352,0,30.7619432416,44.50787544,20,5,7.824,683.61635980223,8.858268,5.5028724,30.781989174,0,0,0,65.9,1.6,-0.4,0,0,1024,1024,1024,1024,0,0,0,0,99.4,-0.4,0,86,3.938,3.886,0,0,0,0,4.723,81.86,683.28827580223,8.530184,38,Tripod,
30300,2023-10-17 21:54:13,45.4380036279411,-122.729808469623,8.530184,,,683.28827580223,9.186352,0,30.766733268,44.517061792,20,5,7.824,683.61635980223,8.858268,5.5028724,30.781989174,0,0,0,66,1.5,-0.5,0,0,1024,1024,1024,1024,0,0,0,0,99.4,-1.7,0,86,3.938,3.886,0,0,0,0,4.723,81.86,683.28827580223,8.530184,38,Tripod,
30500,2023-10-17 21:54:13,45.4380036574237,-122.72980844971,8.530184,,,683.28827580223,8.858268,0,30.7697188324,44.528872816,20,5,7.82,683.61635980223,8.858268,5.5028724,30.781989174,0,0,0,66,1.5,-0.5,0,0,1024,1024,1024,1024,0,0,0,0,99.4,-3.5,0,86,3.936,3.886,0,0,0,0,4.755,82.22,683.28827580223,8.530184,38,Tripod,
30700,2023-10-17 21:54:13,45.4380036819846,-122.729808404049,8.858268,,,683.61635980223,8.858268,0,30.7665036092,44.543636596,20,5,7.82,683.61635980223,8.858268,5.5028724,30.781989174,0,0,0,65.9,1.5,-0.9,0,0,1024,1024,1024,1024,0,0,0,0,99.4,-5.4,0,86,3.936,3.886,0,0,0,0,4.755,82.22,683.61635980223,8.858268,38,Tripod,
30900,2023-10-17 21:54:13,45.4380037173782,-122.729808355372,8.858268,,,683.61635980223,9.186352,0,30.7652240816,44.561681216,20,5,7.82,683.61635980223,8.858268,5.5028724,30.781989174,0,0,0,65.9,1.7,-0.4,0,0,1024,1024,1024,1024,0,0,0,0,99.4,-7.4,0,86,3.936,3.886,0,0,0,0,4.755,82.22,683.61635980223,8.858268,38,Tripod,
31100,2023-10-17 21:54:14,45.4380037707192,-122.729808307977,8.858268,,,683.61635980223,9.186352,0,30.7684721132,44.584647096,20,5,7.82,683.61635980223,8.858268,5.5028724,30.781989174,0,0,0,65.9,1.8,0,0,0,1024,1024,1024,1024,0,0,0,0,99.4,-9.3,0,86,3.936,3.886,0,0,0,0,4.755,82.22,683.61635980223,8.858268,38,Tripod,
31300,2023-10-17 21:54:14,45.4380037849614,-122.729808267529,8.858268,,,683.61635980223,9.186352,0,30.7638789372,44.596130036,20,5,7.82,683.61635980223,8.858268,5.5028724,30.781989174,0,0,0,65.9,1.8,-0.9,0,0,1024,1024,1024,1024,0,0,0,0,99.4,-11.3,0,86,3.936,3.886,0,0,0,0,4.755,82.22,683.61635980223,8.858268,38,Tripod,
31500,2023-10-17 21:54:14,45.4380038103105,-122.729808245479,8.858268,,,683.61635980223,9.186352,0,30.7654865488,44.606956808,20,5,7.82,683.61635980223,8.858268,5.5028724,30.781989174,0,0,0,65.9,1.8,-0.9,0,0,1024,1024,1024,1024,0,0,0,0,99.4,-13.3,0,86,3.937,3.886,0,0,0,0,4.721,82.22,683.61635980223,8.858268,38,Tripod,
31700,2023-10-17 21:54:14,45.4380038647566,-122.729808236677,8.858268,,,683.61635980223,9.186352,0,30.776575788,44.626969932,20,5,7.82,683.61635980223,8.858268,5.5028724,30.781989174,0,0,0,66,1.7,-0.5,0,0,1024,1024,1024,1024,0,0,0,0,99.4,-15.2,0,86,3.937,3.886,0,0,0,0,4.721,82.22,683.61635980223,8.858268,38,Tripod,
31900,2023-10-17 21:54:14,45.4380039139512,-122.729808194507,8.858268,,,683.61635980223,9.186352,0,30.779856628,44.647967308,20,5,7.82,683.61635980223,8.858268,5.5028724,30.781989174,0,0,0,65.9,2.1,-0.4,0,0,1024,1024,1024,1024,0,0,0,0,99.4,-17.2,0,86,3.937,3.886,0,0,0,0,4.721,82.22,683.61635980223,8.858268,38,Tripod,
32100,2023-10-17 21:54:15,45.4380039405425,-122.72980815445,8.858268,,,683.61635980223,9.186352,0,30.7782818248,44.66207492,20,5,7.82,683.61635980223,8.858268,5.5028724,30.781989174,0,0,0,66,2.2,-0.4,0,0,1024,1024,1024,1024,0,0,0,0,99.4,-19,0,86,3.937,3.886,0,0,0,0,4.721,82.22,683.61635980223,8.858268,38,Tripod,
32300,2023-10-17 21:54:15,45.4380039563139,-122.729808131558,8.858268,,,683.61635980223,9.186352,0,30.7775272316,44.67027702,20,5,7.82,683.61635980223,8.858268,5.5028724,30.781989174,0,0,0,65.9,1.9,-1.2,0,0,1024,1024,1024,1024,0,0,0,0,99.4,-20.3,0,86,3.937,3.886,0,0,0,0,4.721,82.22,683.61635980223,8.858268,38,Tripod,
32500,2023-10-17 21:54:15,45.438003987981,-122.729808133841,8.858268,,,683.61635980223,9.186352,0,30.785434056,44.68175996,20,5,7.823,683.61635980223,8.858268,5.5028724,30.785434056,0,0,0,65.9,1.8,-0.6,0,0,1024,1024,1024,1024,0,0,0,0,99.4,-21.1,0,86,3.935,3.885,0,0,0,0,4.653,82.22,683.61635980223,8.858268,38,Tripod,
32700,2023-10-17 21:54:15,45.4380039936693,-122.729808156086,8.858268,,,683.61635980223,9.186352,0,30.7911099092,44.687993556,20,5,7.823,683.61635980223,8.858268,5.5028724,30.7911099092,0,0,0,65.9,1.5,-0.8,0,0,1024,1024,1024,1024,0,0,0,0,99.4,-22.1,0,86,3.935,3.885,0,0,0,0,4.653,82.22,683.61635980223,8.858268,38,Tripod,
32900,2023-10-17 21:54:15,45.4380039806607,-122.729808179722,8.858268,,,683.61635980223,9.186352,0,30.7926847124,44.695539488,20,5,7.823,683.61635980223,8.858268,5.5028724,30.7926847124,0,0,0,65.9,1.3,-1,0,0,1024,1024,1024,1024,0,0,0,0,99.4,-23.2,0,86,3.935,3.885,0,0,0,0,4.653,82.22,683.61635980223,8.858268,38,Tripod,
33100,2023-10-17 21:54:16,45.4380039923671,-122.72980820248,8.858268,,,683.61635980223,9.186352,0,30.799869752,44.702757336,20,5,7.823,683.61635980223,8.858268,5.5028724,30.799869752,0,0,0,65.9,1.4,-1,0,0,1024,1024,1024,1350,0,0,0,49,99.4,-24,0,86,3.935,3.885,0,0,0,0,4.653,82.22,683.61635980223,8.858268,38,Tripod,
33300,2023-10-17 21:54:16,45.4380040104687,-122.729808249606,8.858268,,,683.61635980223,9.186352,0,30.8133540044,44.716536864,20,5,7.823,683.61635980223,8.858268,5.5028724,30.8133540044,0,0,0,65.9,1.1,-0.7,0,0,1024,1024,1024,1024,0,0,0,0,99.4,-24.4,0,86,3.935,3.885,0,0,0,0,4.653,82.22,683.61635980223,8.858268,38,Tripod,
33500,2023-10-17 21:54:16,45.4380040193268,-122.729808283876,8.858268,,,683.61635980223,9.186352,0,30.8221466556,44.7260513,20,5,7.823,683.61635980223,8.858268,5.5028724,30.8221466556,0,0,0,66,1.1,-0.9,0,0,1024,1024,1024,1024,0,0,0,0,99.6,-24.4,0,86,3.935,3.885,0,0,0,0,4.653,82.22,683.61635980223,8.858268,38,Tripod,
33700,2023-10-17 21:54:16,45.4380040310247,-122.729808321223,8.858268,,,683.61635980223,9.186352,0,30.8322188344,44.736221904,20,5,7.82,683.61635980223,8.858268,5.5028724,30.8322188344,0,0,0,66.3,1,-1,0,0,1024,1024,1024,1024,0,0,0,0,99.9,-24.4,0,86,3.934,3.883,0,0,0,0,4.708,82.4,683.61635980223,8.858268,38,Tripod,
33900,2023-10-17 21:54:16,45.4380040634199,-122.729808339586,8.858268,,,683.61635980223,9.186352,0,30.8434064988,44.74901718,20,5,7.82,683.61635980223,8.858268,5.5028724,30.8434064988,0,0,0,66.5,1.4,-0.5,0,0,1024,1024,996,1487,0,0,-4,70,100.2,-24.4,0,86,3.934,3.883,0,0,0,0,4.708,82.4,683.61635980223,8.858268,38,Tripod,
34100,2023-10-17 21:54:17,45.4380041131414,-122.729808374686,8.858268,,,683.61635980223,9.186352,0,30.8619760532,44.769358388,21,5,7.82,683.61635980223,8.858268,5.5028724,30.8619760532,0,0,0,66.7,1.3,-0.2,0,0,1024,1024,1024,1024,0,0,0,0,100.3,-24.4,0,86,3.934,3.883,0,0,0,0,4.708,82.4,683.61635980223,8.858268,38,Tripod,
34300,2023-10-17 21:54:17,45.4380041298937,-122.729808407675,8.858268,,,683.61635980223,9.186352,0,30.872376316,44.779857076,21,5,7.82,683.61635980223,8.858268,5.5028724,30.872376316,0,0,0,67,1,-0.7,0,0,1024,1024,1024,1024,0,0,0,0,101.6,-24.4,0,86,3.934,3.883,0,0,0,0,4.708,82.4,683.61635980223,8.858268,38,Tripod,
34500,2023-10-17 21:54:17,45.4380041296282,-122.729808464068,8.858268,,,683.61635980223,9.186352,0,30.88336713,44.794292772,21,5,7.82,683.61635980223,8.858268,5.5028724,30.88336713,0,0,0,68.2,0.8,-0.8,0,0,1024,1024,1024,1024,0,0,0,0,102.1,-24.4,0,86,3.934,3.883,0,0,0,0,4.708,82.4,683.61635980223,8.858268,38,Tripod,
34700,2023-10-17 21:54:17,45.4380041656215,-122.729808518898,8.858268,,,683.61635980223,9.186352,0,30.902560044,44.813321644,21,5,7.817,683.61635980223,8.858268,5.5028724,30.902560044,0,0,0,69.1,1,-0.5,0,0,1024,1024,1024,1324,0,0,0,45,102.8,-24.4,0,86,3.936,3.884,0,0,0,0,4.71,82.58,683.61635980223,8.858268,38,Tripod,
34900,2023-10-17 21:54:17,45.438004221314,-122.72980858877,8.858268,,,683.61635980223,9.186352,0,30.9293316984,44.840552616,21,5,7.817,683.61635980223,8.858268,5.5028724,30.9293316984,0,0,0,69.6,0.9,0.1,0,0,1024,1024,1024,1024,0,0,0,0,103.3,-24.4,0,86,3.936,3.884,0,0,0,0,4.71,82.58,683.61635980223,8.858268,38,Tripod,
35100,2023-10-17 21:54:18,45.4380042579541,-122.729808639131,8.858268,,,683.61635980223,9.514436,0,30.9478028276,44.85892532,21,5,7.817,683.61635980223,8.858268,5.5028724,30.9478028276,0,0,0,70.2,0.9,0.5,0,0,1024,1024,1024,1024,0,0,0,0,104.1,-24.4,0,86,3.936,3.884,0,0,0,0,4.71,82.58,683.61635980223,8.858268,38,Tripod,
35300,2023-10-17 21:54:18,45.4380042447313,-122.729808680813,8.858268,,,683.61635980223,9.186352,0,30.9528553212,44.870736344,21,5,7.817,683.61635980223,8.858268,5.5028724,30.9528553212,0,0,0,71.2,1,0,0,0,1024,1024,1024,1024,0,0,0,0,104.9,-24.4,0,86,3.936,3.884,0,0,0,0,4.71,82.58,683.61635980223,8.858268,38,Tripod,
35500,2023-10-17 21:54:18,45.4380042387859,-122.729808715425,8.858268,,,683.61635980223,9.186352,0,30.9582358988,44.879922696,21,5,7.817,683.61635980223,8.858268,5.5028724,30.9582358988,0,0,0,71.7,1.2,-0.5,0,0,1024,1024,1024,1024,0,0,0,0,105.4,-24.4,0,86,3.936,3.884,0,0,0,0,4.71,82.58,683.61635980223,8.858268,38,Tripod,
35700,2023-10-17 21:54:18,45.4380042535936,-122.729808761855,8.858268,,,683.61635980223,9.186352,0,30.970801516,44.893046056,21,5,7.818,683.61635980223,8.858268,5.5028724,30.970801516,0,0,0,72.1,0.9,0.4,0,0,1024,1024,1024,1024,0,0,0,0,105.7,-24.4,0,86,3.934,3.883,0,0,0,0,4.669,82.58,683.61635980223,8.858268,38,Tripod,
35900,2023-10-17 21:54:18,45.4380042603742,-122.729808829127,8.858268,,,683.61635980223,9.186352,0,30.985565296,44.910434508,21,5,7.818,683.61635980223,8.858268,5.5028724,30.985565296,0,0,0,72.3,0.5,0.4,0,0,1024,1024,1024,1024,0,0,0,0,105.7,-24.4,0,86,3.934,3.883,0,0,0,0,4.669,82.58,683.61635980223,8.858268,38,Tripod,
36100,2023-10-17 21:54:19,45.4380042562493,-122.729808840652,8.858268,,,683.61635980223,9.186352,0,30.9868448236,44.913715348,21,5,7.818,683.61635980223,8.858268,5.5028724,30.9868448236,0,0,0,72.3,1,0.4,0,0,1024,1024,1216,1024,0,0,29,0,105.7,-24.4,0,86,3.934,3.883,0,0,0,0,4.669,82.58,683.61635980223,8.858268,38,Tripod,
36300,2023-10-17 21:54:19,45.4380042428723,-122.729808821667,8.858268,,,683.61635980223,9.514436,0,30.979987868,44.920605112,21,5,7.818,683.61635980223,8.858268,5.5028724,30.9868448236,0,0,0,72.3,1,0.1,0,0,1024,1024,1241,1024,0,0,33,0,105.7,-24.4,0,86,3.934,3.883,0,0,0,0,4.669,82.58,683.61635980223,8.858268,38,Tripod,
36500,2023-10-17 21:54:19,45.4380042087466,-122.729808778154,8.858268,,,683.61635980223,9.514436,0,30.9634524344,44.937337396,21,5,7.818,683.61635980223,8.858268,5.5028724,30.9868448236,0,0,-0.223694,72.3,1.7,0.5,0,0,1024,1024,1241,1024,0,0,33,0,105.7,-24.4,0,86,3.934,3.883,0,0,0,0,4.669,82.58,683.61635980223,8.858268,38,Tripod,
36700,2023-10-17 21:54:19,45.4380041694508,-122.729808716414,9.186352,,,683.94444380223,9.514436,0,30.9421269744,44.958662856,21,5,7.818,683.94444380223,9.186352,5.5028724,30.9868448236,0,0,-0.447388,72.3,1.9,0.3,0,0,1024,1024,1256,1024,0,0,35,0,105.7,-24.4,0,86,3.933,3.878,0,0,0,0,4.63,82.76,683.94444380223,9.186352,38,Tripod,
36900,2023-10-17 21:54:19,45.4380041298638,-122.729808672047,9.186352,,,683.94444380223,9.514436,0,30.9241151628,44.97703556,21,5,7.818,683.94444380223,9.186352,5.5028724,30.9868448236,0,0,-0.447388,72.2,2,0.3,0,0,1024,1024,1204,1024,0,0,27,0,105.7,-24.4,0,86,3.933,3.878,0,0,0,0,4.63,82.76,683.94444380223,9.186352,38,Tripod,
37100,2023-10-17 21:54:20,45.4380041001713,-122.729808667664,9.514436,,,684.27252780223,9.84252,0,30.9162739552,44.987862332,21,5,7.818,684.27252780223,9.514436,5.5028724,30.9868448236,0,0,-0.447388,72.2,1.6,0.5,0,0,1024,1024,1024,1024,0,0,0,0,105.7,-24.4,0,86,3.933,3.878,0,0,0,0,4.63,82.76,684.27252780223,9.514436,38,Tripod,
37300,2023-10-17 21:54:20,45.4380040472501,-122.729808663623,9.514436,,,684.27252780223,9.84252,0,30.90305217,45.007219288,21,5,7.818,684.27252780223,9.514436,5.5028724,30.9868448236,0,0,-0.223694,72.2,1.9,-0.1,0,0,1024,1024,1024,1024,0,0,0,0,105.7,-24.4,0,86,3.933,3.878,0,0,0,0,4.63,82.76,684.27252780223,9.514436,38,Tripod,
37500,2023-10-17 21:54:20,45.4380039927526,-122.729808620391,9.84252,,,684.60061180223,9.84252,0,30.8817923268,45.029857084,21,5,7.818,684.60061180223,9.84252,5.5028724,30.9868448236,0,0,0,72.2,1.5,-0.1,0,0,1024,1024,1024,1024,0,0,0,0,105.7,-24.4,0,86,3.933,3.878,0,0,0,0,4.63,82.76,684.60061180223,9.84252,38,Tripod,
37700,2023-10-17 21:54:20,45.438003959762,-122.729808535221,9.84252,,,684.60061180223,10.170604,0,30.8573500688,45.054791468,21,5,7.809,684.60061180223,9.84252,5.5028724,30.9868448236,0,0,0,72.3,2.6,-0.1,0,0,1024,1024,1024,1024,0,0,0,0,105.7,-24.4,0,86,3.935,3.879,0,0,0,0,4.756,82.76,684.60061180223,9.84252,38,Tripod,
37900,2023-10-17 21:54:20,45.4380039543178,-122.729808483272,9.84252,,,684.60061180223,9.84252,0,30.8458999372,45.068242912,21,5,7.809,684.60061180223,9.84252,5.5028724,30.9868448236,0,0,0,72.2,3,0,0,0,1024,1024,1024,1024,0,0,0,0,105.7,-24.4,0,86,3.935,3.879,0,0,0,0,4.756,82.76,684.60061180223,9.84252,38,Tripod,
38100,2023-10-17 21:54:21,45.4380039698965,-122.729808474067,9.84252,,,684.60061180223,10.170604,0,30.847770016,45.074476508,21,5,7.809,684.60061180223,9.84252,5.5028724,30.9868448236,0,0,0,72.1,2,0,0,0,1024,1024,1024,1024,0,0,0,0,105.7,-24.4,0,86,3.935,3.879,0,0,0,0,4.756,82.76,684.60061180223,9.84252,38,Tripod,
38300,2023-10-17 21:54:21,45.4380040148549,-122.729808469952,9.84252,,,684.60061180223,9.84252,0,30.8575141108,45.090880708,21,5,7.809,684.60061180223,9.84252,5.5028724,30.9868448236,0,0,0,72.1,2.4,1,0,0,1024,1024,1024,1024,0,0,0,0,105.7,-24.5,0,86,3.935,3.879,0,0,0,0,4.756,82.76,684.60061180223,9.84252,38,Tripod,
38500,2023-10-17 21:54:21,45.4380040366102,-122.729808448868,9.84252,,,684.60061180223,10.170604,0,30.8584983628,45.100395144,21,5,7.809,684.60061180223,9.84252,5.5028724,30.9868448236,0,0,0,72.1,2.8,1.3,0,0,1024,1024,1024,1024,0,0,0,0,105.7,-25.2,0,86,3.935,3.879,0,0,0,0,4.756,82.76,684.60061180223,9.84252,38,Tripod,
38700,2023-10-17 21:54:21,45.4380040000387,-122.729808371793,9.84252,,,684.60061180223,10.170604,0,30.834810698,45.124345276,21,5,7.811,684.60061180223,9.84252,5.5028724,30.9868448236,0,0,0,72.2,2.9,0.1,0,0,1024,1024,1024,1024,0,0,0,0,105.7,-26.3,0,86,3.933,3.882,0,0,0,0,4.691,82.94,684.60061180223,9.84252,38,Tripod,
38900,2023-10-17 21:54:21,45.4380039599762,-122.729808252329,9.84252,,,684.60061180223,10.170604,0,30.802002298,45.158137928,21,5,7.811,684.60061180223,9.84252,5.5028724,30.9868448236,0,0,0,72.3,3.7,-0.1,0,0,1024,1024,1024,1024,0,0,0,0,105.7,-27,0,86,3.933,3.882,0,0,0,0,4.691,82.94,684.60061180223,9.84252,38,Tripod,
39100,2023-10-17 21:54:22,45.4380039566866,-122.729808157221,9.84252,,,684.60061180223,10.170604,0,30.7826125336,45.182744228,21,5,7.811,684.60061180223,9.84252,5.5028724,30.9868448236,0,0,0,72.3,3.2,0,0,0,1024,1024,1024,1024,0,0,0,0,105.7,-27.4,0,86,3.933,3.882,0,0,0,0,4.691,82.94,684.60061180223,9.84252,38,Tripod,
39300,2023-10-17 21:54:22,45.4380039880409,-122.729808109973,9.84252,,,684.60061180223,10.170604,0,30.7807752632,45.199148428,21,5,7.811,684.60061180223,9.84252,5.5028724,30.9868448236,0,0,0,72.3,3,1,0,0,1024,1024,1024,1024,0,0,0,0,105.7,-27.5,0,86,3.933,3.882,0,0,0,0,4.691,82.94,684.60061180223,9.84252,38,Tripod,
39500,2023-10-17 21:54:22,45.4380040213057,-122.729808072284,9.84252,,,684.60061180223,10.170604,0,30.7812345808,45.21489646,21,5,7.811,684.60061180223,9.84252,5.5028724,30.9868448236,0,0,0,72.3,2.9,0.8,0,0,1024,1024,1024,1024,0,0,0,0,105.7,-27.5,0,86,3.933,3.882,0,0,0,0,4.691,82.94,684.60061180223,9.84252,38,Tripod,
39700,2023-10-17 21:54:22,45.4380040552986,-122.729808045473,9.84252,,,684.60061180223,10.170604,0,30.7839904864,45.229004072,21,5,7.805,684.60061180223,9.84252,5.5028724,30.9868448236,0,0,0,72.3,2.8,0.9,0,0,1024,1024,1024,1024,0,0,0,0,105.7,-27.5,0,86,3.931,3.879,0,0,0,0,4.736,82.94,684.60061180223,9.84252,38,Tripod,
39900,2023-10-17 21:54:22,45.4380040802193,-122.729807969839,9.84252,,,684.60061180223,10.170604,0,30.77509941,45.250329532,21,5,7.805,684.60061180223,9.84252,5.5028724,30.9868448236,0,0,0,72.3,3.4,1.2,0,0,1024,1024,1024,1024,0,0,0,0,105.7,-27.5,0,86,3.931,3.879,0,0,0,0,4.736,82.94,684.60061180223,9.84252,38,Tripod,
40100,2023-10-17 21:54:23,45.4380041108969,-122.729807891347,9.84252,,,684.60061180223,10.170604,0,30.7670285436,45.273295412,21,5,7.805,684.60061180223,9.84252,5.5028724,30.9868448236,0,0,0,72.3,3.5,0.9,0,0,1024,578,1024,1024,0,-68,0,0,105.7,-27.5,0,86,3.931,3.879,0,0,0,0,4.736,82.94,684.60061180223,9.84252,38,Tripod,
40300,2023-10-17 21:54:23,45.4380041367257,-122.729807855185,9.84252,,,684.60061180223,10.170604,0,30.7660771,45.286418772,21,5,7.805,684.60061180223,9.84252,5.5028724,30.9868448236,0,0,0,72.2,3.8,-2.4,0,0,1024,364,1024,1024,0,-100,0,0,105.7,-27.5,0,86,3.931,3.879,0,0,0,0,4.736,82.94,684.60061180223,9.84252,38,Tripod,
40500,2023-10-17 21:54:23,45.4380043238753,-122.729807968728,9.84252,,,684.60061180223,10.170604,0.223694,30.8324484932,45.36089384,21,5,7.805,684.60061180223,9.84252,5.5028724,30.9868448236,0.223694,0,0,71.9,2.9,-11.2,0,0,1024,364,1024,1024,0,-100,0,0,105.7,-27.5,0,86,3.931,3.879,0,0,0,0,4.736,82.94,684.60061180223,9.84252,38,Tripod,
40700,2023-10-17 21:54:23,45.4380051238401,-122.729808375077,9.84252,,,684.60061180223,10.170604,1.1408394,31.1012477144,45.670605136,21,5,7.805,684.60061180223,9.84252,5.5028724,31.1012477144,1.11847,-0.223694,0,71.9,2.8,-14.5,0,0,1024,364,1024,1024,0,-100,0,0,105.7,-27.5,0,86,3.931,3.879,0,0,0,0,4.736,82.94,684.60061180223,9.84252,38,Tripod,
40900,2023-10-17 21:54:23,45.4380067293251,-122.729809119247,9.84252,,,684.60061180223,10.170604,2.3264176,31.629266104,46.286418804,21,5,7.808,684.60061180223,9.84252,5.5028724,31.629266104,2.23694,-0.671082,0,71.8,3.1,-14.8,0,0,1024,364,1024,1024,0,-100,0,0,105.7,-27.5,0,86,3.926,3.879,0,0,0,0,4.68,83.12,684.60061180223,9.84252,38,Tripod,
41100,2023-10-17 21:54:24,45.4380091330058,-122.729810232981,9.84252,,,684.60061180223,10.170604,3.2659324,32.4254931636,47.208662928,21,5,7.808,684.60061180223,9.84252,5.5028724,32.4254931636,3.131716,-0.894776,0,71.8,3,-15.2,0,0,1024,364,1024,1024,0,-100,0,0,105.7,-27.5,0,86,3.926,3.879,0,0,0,0,4.68,83.12,684.60061180223,9.84252,38,Tripod,
